{
  "nodes": [
 {
   "id": 1,
   "name": "Ravens",
   "state": "MD",
   "city": "Baltimore",
   "country": "USA",
   "latitude": 39.2833,
   "longitude": -76.6167,
   "region": "AFC North",
   "record": 56
 },
 {
   "id": 2,
   "name": "Browns",
   "state": "OH",
   "city": "Cleveland",
   "country": "USA",
   "latitude": 41.4822,
   "longitude": -81.6697,
   "region": "AFC North",
   "record": 52
 },
 {
   "id": 3,
   "name": "Steelers",
   "state": "PA",
   "city": "Pittsburgh",
   "country": "USA",
   "latitude": 40.4422,
   "longitude": -79.995,
   "region": "AFC North",
   "record": 40
 },
 {
   "id": 4,
   "name": "Bengals",
   "state": "OH",
   "city": "Cincinnati",
   "country": "USA",
   "latitude": 39.1037,
   "longitude": -84.5136,
   "region": "AFC North",
   "record": 32
 },
 {
   "id": 5,
   "name": "Colts",
   "state": "IN",
   "city": "Indianapolis",
   "country": "USA",
   "latitude": 39.791,
   "longitude": -86.148,
   "region": "AFC South",
   "record": 10
 },
 {
   "id": 6,
   "name": "Jaguars",
   "state": "FL",
   "city": "Jacksonville",
   "country": "USA",
   "latitude": 30.3369,
   "longitude": -81.6614,
   "region": "AFC South",
   "record": 89
 },
 {
   "id": 7,
   "name": "Texans",
   "state": "TX",
   "city": "Houston",
   "country": "USA",
   "latitude": 29.7628,
   "longitude": -95.3831,
   "region": "AFC South",
   "record": 230
 },
 {
   "id": 8,
   "name": "Titans",
   "state": "TN",
   "city": "Tennessee",
   "country": "USA",
   "latitude": 35.5175,
   "longitude": -86.5804,
   "region": "AFC South",
   "record": 50
 },
 {
   "id": 9,
   "name": "Dolphine",
   "state": "FL",
   "city": "Miami",
   "country": "USA",
   "latitude": 25.7751,
   "longitude": -80.1947,
   "region": "AFC East",
   "record": 506
 },
 {
   "id": 10,
   "name": "Bills",
   "state": "NY",
   "city": "Buffalo",
   "country": "USA",
   "latitude": 42.8877,
   "longitude": -78.8794,
   "region": "AFC East",
   "record": 0
 },
 {
   "id": 11,
   "name": "Patriots",
   "state": "NY",
   "city": "New England",
   "country": "USA",
   "latitude": 43.9654,
   "longitude": -70.8227,
   "region": "AFC East",
   "record": 20
 },
 {
   "id": 12,
   "name": "Jets",
   "state": "NY",
   "city": "New York",
   "country": "USA",
   "latitude": 40.7128,
   "longitude": -74.006,
   "region": "AFC East",
   "record": 30
 },
 {
   "id": 13,
   "name": "Chiefs",
   "state": "MO",
   "city": "Kansas City",
   "country": "USA",
   "latitude": 39.0997,
   "longitude": -94.5783,
   "region": "AFC West",
   "record": 60
 },
 {
   "id": 14,
   "name": "Raiders",
   "state": "CA",
   "city": "Las Vegas",
   "country": "USA",
   "latitude": 36.1691,
   "longitude": -115.1406,
   "region": "AFC West",
   "record": 40
 },
 {
   "id": 15,
   "name": "Broncos",
   "state": "CO",
   "city": "Denver",
   "country": "USA",
   "latitude": 39.7392,
   "longitude": 104.9903,
   "region": "AFC West",
   "record": 80
 },
 {
   "id": 16,
   "name": "Chargers",
   "state": "CA",
   "city": "Los Angeles",
   "country": "USA",
   "latitude": 34.0522,
   "longitude": -118.2433,
   "region": "AFC West",
   "record": 70
 },
 {
   "id": 17,
   "name": "Bears",
   "state": "IL",
   "city": "Chicago",
   "country": "USA",
   "latitude": 41.8832,
   "longitude": -87.6324,
   "region": "NFC North",
   "record": 90
 },
 {
   "id": 18,
   "name": "Packers",
   "state": "WI",
   "city": "Green Bay",
   "country": "USA",
   "latitude": 44.5133,
   "longitude": -88.0133,
   "region": "NFC North",
   "record": 90
 },
 {
   "id": 19,
   "name": "Lions",
   "state": "MI",
   "city": "Detroit",
   "country": "USA",
   "latitude": 42.3329,
   "longitude": -83.0478,
   "region": "NFC North",
   "record": 123
 },
 {
   "id": 20,
   "name": "Vikings",
   "state": "MN",
   "city": "Minnesota",
   "country": "USA",
   "latitude": 46.7296,
   "longitude": -94.6859,
   "region": "NFC North",
   "record": 6520
 },
 {
   "id": 21,
   "name": "Falcons",
   "state": "GA",
   "city": "Atlanta",
   "country": "USA",
   "latitude": 33.749,
   "longitude": -84.388,
   "region": "NFC South",
   "record": 10
 },
 {
   "id": 22,
   "name": "Buccaneers",
   "state": "FL",
   "city": "Tampa Bay",
   "country": "USA",
   "latitude": 27.7634,
   "longitude": -82.5437,
   "region": "NFC South",
   "record": 60
 },
 {
   "id": 23,
   "name": "Panthers",
   "state": "NC",
   "city": "Carolina",
   "country": "USA",
   "latitude": 26.7087,
   "longitude": -80.1041,
   "region": "NFC South",
   "record": 965
 },
 {
   "id": 24,
   "name": "Saints",
   "state": "\tLA",
   "city": "New Orleans",
   "country": "USA",
   "latitude": 29.9518,
   "longitude": -90.0746,
   "region": "NFC South",
   "record": 123
 },
 {
   "id": 25,
   "name": "Cowboys",
   "state": "TX",
   "city": "Dallas",
   "country": "USA",
   "latitude": 32.7767,
   "longitude": -96.797,
   "region": "NFC East",
   "record": 123
 },
 {
   "id": 26,
   "name": "Giants",
   "state": "NY",
   "city": "New York",
   "country": "USA",
   "latitude": 40.7128,
   "longitude": -74.006,
   "region": "NFC East",
   "record": 55
 },
 {
   "id": 27,
   "name": "Eagles",
   "state": "PL",
   "city": "Philadelphia",
   "country": "USA",
   "latitude": 39.9526,
   "longitude": -75.1652,
   "region": "NFC East",
   "record": 520
 },
 {
   "id": 28,
   "name": "Football Team",
   "state": "WA",
   "city": "Washington",
   "country": "USA",
   "latitude": 47.7511,
   "longitude": -120.7401,
   "region": "NFC East",
   "record": 89
 },
 {
   "id": 29,
   "name": "Rams",
   "state": "CA",
   "city": "Los Angeles",
   "country": "USA",
   "latitude": 34.0522,
   "longitude": -118.2433,
   "region": "NFC West",
   "record": 123
 },
 {
   "id": 30,
   "name": "49ers",
   "state": "CA",
   "city": "San Fransisco",
   "country": "USA",
   "latitude": 37.7749,
   "longitude": -122.4194,
   "region": "NFC West",
   "record": 878
 },
 {
   "id": 31,
   "name": "Seahawks",
   "state": "WA",
   "city": "Seattle",
   "country": "USA",
   "latitude": 47.6032,
   "longitude": -122.3303,
   "region": "NFC West",
   "record": 98
 },
 {
   "id": 32,
   "name": "Cardinals",
   "state": "AZ",
   "city": "Arizona",
   "country": "USA",
   "latitude": 34.0489,
   "longitude": -111.0937,
   "region": "NFC West",
   "record": 781
 }
],
  "links": [

 {
   "source": 7,
   "target": 13,
   "score": "20-34",
   "week": 1
 },
 {
   "source": 31,
   "target": 21,
   "score": "38-25",
   "week": 1
 },
 {
   "source": 2,
   "target": 1,
   "score": "6-38. ",
   "week": 1
 },
 {
   "source": 12,
   "target": 10,
   "score": "17-27",
   "week": 1
 },
 {
   "source": 14,
   "target": 23,
   "score": "34-30",
   "week": 1
 },
 {
   "source": 17,
   "target": 19,
   "score": "27-23",
   "week": 1
 },
 {
   "source": 5,
   "target": 6,
   "score": "20-27",
   "week": 1
 },
 {
   "source": 18,
   "target": 20,
   "score": "43-34",
   "week": 1
 },
 {
   "source": 9,
   "target": 11,
   "score": "11-21.",
   "week": 1
 },
 {
   "source": 27,
   "target": 28,
   "score": "17-27",
   "week": 1
 },
 {
   "source": 16,
   "target": 4,
   "score": "16-13",
   "week": 1
 },
 {
   "source": 22,
   "target": 24,
   "score": "23-34",
   "week": 1
 },
 {
   "source": 32,
   "target": 30,
   "score": "24-20",
   "week": 1
 },
 {
   "source": 25,
   "target": 29,
   "score": "17-20",
   "week": 1
 },
 {
   "source": 3,
   "target": 26,
   "score": "26-16",
   "week": 1
 },
 {
   "source": 8,
   "target": 15,
   "score": "16-14",
   "week": 1
 },
 {
   "source": 4,
   "target": 2,
   "score": "30-35",
   "week": 2
 },
 {
   "source": 26,
   "target": 17,
   "score": "13-17",
   "week": 2
 },
 {
   "source": 21,
   "target": 25,
   "score": "39-40",
   "week": 2
 },
 {
   "source": 19,
   "target": 18,
   "score": "21-42",
   "week": 2
 },
 {
   "source": 20,
   "target": 5,
   "score": "11-28.",
   "week": 2
 },
 {
   "source": 10,
   "target": 9,
   "score": "31-28",
   "week": 2
 },
 {
   "source": 30,
   "target": 12,
   "score": "31-13",
   "week": 2
 },
 {
   "source": 29,
   "target": 27,
   "score": "37-19",
   "week": 2
 },
 {
   "source": 15,
   "target": 3,
   "score": "21-26",
   "week": 2
 },
 {
   "source": 23,
   "target": 22,
   "score": "17-31",
   "week": 2
 },
 {
   "source": 6,
   "target": 8,
   "score": "30-33",
   "week": 2
 },
 {
   "source": 28,
   "target": 32,
   "score": "15-30",
   "week": 2
 },
 {
   "source": 1,
   "target": 7,
   "score": "33-16",
   "week": 2
 },
 {
   "source": 13,
   "target": 16,
   "score": "23-20",
   "week": 2
 },
 {
   "source": 11,
   "target": 31,
   "score": "30-35",
   "week": 2
 },
 {
   "source": 24,
   "target": 14,
   "score": "24-34",
   "week": 2
 },
 {
   "source": 9,
   "target": 6,
   "score": "31-13",
   "week": 3
 },
 {
   "source": 17,
   "target": 21,
   "score": "30-26",
   "week": 3
 },
 {
   "source": 29,
   "target": 10,
   "score": "32-35",
   "week": 3
 },
 {
   "source": 28,
   "target": 2,
   "score": "20-34",
   "week": 3
 },
 {
   "source": 8,
   "target": 20,
   "score": "31-30",
   "week": 3
 },
 {
   "source": 14,
   "target": 11,
   "score": "20-36",
   "week": 3
 },
 {
   "source": 30,
   "target": 26,
   "score": "36-9.",
   "week": 3
 },
 {
   "source": 4,
   "target": 27,
   "score": "23-23",
   "week": 3
 },
 {
   "source": 7,
   "target": 3,
   "score": "21-28",
   "week": 3
 },
 {
   "source": 12,
   "target": 5,
   "score": "7-36.",
   "week": 3
 },
 {
   "source": 23,
   "target": 16,
   "score": "21-16",
   "week": 3
 },
 {
   "source": 19,
   "target": 32,
   "score": "26-23",
   "week": 3
 },
 {
   "source": 22,
   "target": 15,
   "score": "28-10",
   "week": 3
 },
 {
   "source": 25,
   "target": 31,
   "score": "31-38",
   "week": 3
 },
 {
   "source": 18,
   "target": 24,
   "score": "37-30",
   "week": 3
 },
 {
   "source": 13,
   "target": 1,
   "score": "34-20",
   "week": 3
 },
 {
   "source": 15,
   "target": 12,
   "score": "37-28",
   "week": 4
 },
 {
   "source": 32,
   "target": 23,
   "score": "21-31",
   "week": 4
 },
 {
   "source": 6,
   "target": 4,
   "score": "25-33",
   "week": 4
 },
 {
   "source": 2,
   "target": 25,
   "score": "49-38",
   "week": 4
 },
 {
   "source": 24,
   "target": 19,
   "score": "35-29",
   "week": 4
 },
 {
   "source": 20,
   "target": 7,
   "score": "31-23",
   "week": 4
 },
 {
   "source": 31,
   "target": 9,
   "score": "31-23",
   "week": 4
 },
 {
   "source": 16,
   "target": 22,
   "score": "31-38",
   "week": 4
 },
 {
   "source": 1,
   "target": 28,
   "score": "31-17",
   "week": 4
 },
 {
   "source": 26,
   "target": 29,
   "score": "9-17.",
   "week": 4
 },
 {
   "source": 5,
   "target": 17,
   "score": "19-11",
   "week": 4
 },
 {
   "source": 10,
   "target": 14,
   "score": "30-23",
   "week": 4
 },
 {
   "source": 27,
   "target": 30,
   "score": "25-20",
   "week": 4
 },
 {
   "source": 11,
   "target": 13,
   "score": "10-26.",
   "week": 4
 },
 {
   "source": 21,
   "target": 18,
   "score": "16-30",
   "week": 4
 },
 {
   "source": 22,
   "target": 17,
   "score": "19-20",
   "week": 5
 },
 {
   "source": 23,
   "target": 21,
   "score": "23-16",
   "week": 5
 },
 {
   "source": 4,
   "target": 1,
   "score": "3-27.",
   "week": 5
 },
 {
   "source": 6,
   "target": 7,
   "score": "14-30",
   "week": 5
 },
 {
   "source": 14,
   "target": 13,
   "score": "40-32",
   "week": 5
 },
 {
   "source": 32,
   "target": 12,
   "score": "30-10",
   "week": 5
 },
 {
   "source": 27,
   "target": 3,
   "score": "29-38",
   "week": 5
 },
 {
   "source": 29,
   "target": 28,
   "score": "30-10",
   "week": 5
 },
 {
   "source": 9,
   "target": 30,
   "score": "43-17",
   "week": 5
 },
 {
   "source": 5,
   "target": 2,
   "score": "23-32",
   "week": 5
 },
 {
   "source": 26,
   "target": 25,
   "score": "34-37",
   "week": 5
 },
 {
   "source": 20,
   "target": 31,
   "score": "26-27",
   "week": 5
 },
 {
   "source": 16,
   "target": 24,
   "score": "27-30",
   "week": 5
 },
 {
   "source": 10,
   "target": 8,
   "score": "16-42",
   "week": 5
 },
 {
   "source": 17,
   "target": 23,
   "score": "23-16",
   "week": 6
 },
 {
   "source": 4,
   "target": 5,
   "score": "27-31",
   "week": 6
 },
 {
   "source": 19,
   "target": 6,
   "score": "34-16",
   "week": 6
 },
 {
   "source": 21,
   "target": 20,
   "score": "40-23",
   "week": 6
 },
 {
   "source": 28,
   "target": 26,
   "score": "19-20",
   "week": 6
 },
 {
   "source": 1,
   "target": 27,
   "score": "30-28",
   "week": 6
 },
 {
   "source": 2,
   "target": 3,
   "score": "7-38.",
   "week": 6
 },
 {
   "source": 7,
   "target": 8,
   "score": "36-42",
   "week": 6
 },
 {
   "source": 15,
   "target": 11,
   "score": "18-12",
   "week": 6
 },
 {
   "source": 12,
   "target": 9,
   "score": "0-24",
   "week": 6
 },
 {
   "source": 18,
   "target": 22,
   "score": "10-38.",
   "week": 6
 },
 {
   "source": 29,
   "target": 30,
   "score": "16-24",
   "week": 6
 },
 {
   "source": 13,
   "target": 10,
   "score": "26-17",
   "week": 6
 },
 {
   "source": 32,
   "target": 25,
   "score": "38-10",
   "week": 6
 },
 {
   "source": 26,
   "target": 27,
   "score": "21-22",
   "week": 7
 },
 {
   "source": 19,
   "target": 21,
   "score": "23-22",
   "week": 7
 },
 {
   "source": 2,
   "target": 4,
   "score": "37-34",
   "week": 7
 },
 {
   "source": 18,
   "target": 7,
   "score": "35-20",
   "week": 7
 },
 {
   "source": 23,
   "target": 24,
   "score": "24-27",
   "week": 7
 },
 {
   "source": 10,
   "target": 12,
   "score": "18-10",
   "week": 7
 },
 {
   "source": 25,
   "target": 28,
   "score": "3-25.",
   "week": 7
 },
 {
   "source": 3,
   "target": 8,
   "score": "27-24",
   "week": 7
 },
 {
   "source": 22,
   "target": 14,
   "score": "45-20",
   "week": 7
 },
 {
   "source": 13,
   "target": 15,
   "score": "43-16",
   "week": 7
 },
 {
   "source": 30,
   "target": 11,
   "score": "33-6",
   "week": 7
 },
 {
   "source": 6,
   "target": 16,
   "score": "29-39",
   "week": 7
 },
 {
   "source": 31,
   "target": 32,
   "score": "34-37",
   "week": 7
 },
 {
   "source": 17,
   "target": 29,
   "score": "10-24.",
   "week": 7
 },
 {
   "source": 21,
   "target": 23,
   "score": "25-17",
   "week": 8
 },
 {
   "source": 11,
   "target": 10,
   "score": "21-24",
   "week": 8
 },
 {
   "source": 8,
   "target": 4,
   "score": "20-31",
   "week": 8
 },
 {
   "source": 14,
   "target": 2,
   "score": "16-6",
   "week": 8
 },
 {
   "source": 5,
   "target": 19,
   "score": "41-21",
   "week": 8
 },
 {
   "source": 20,
   "target": 18,
   "score": "28-22",
   "week": 8
 },
 {
   "source": 12,
   "target": 13,
   "score": "9-35.",
   "week": 8
 },
 {
   "source": 29,
   "target": 9,
   "score": "17-28",
   "week": 8
 },
 {
   "source": 3,
   "target": 1,
   "score": "28-24",
   "week": 8
 },
 {
   "source": 16,
   "target": 15,
   "score": "30-31",
   "week": 8
 },
 {
   "source": 24,
   "target": 17,
   "score": "26-23",
   "week": 8
 },
 {
   "source": 30,
   "target": 31,
   "score": "27-37",
   "week": 8
 },
 {
   "source": 25,
   "target": 27,
   "score": "9-23.",
   "week": 8
 },
 {
   "source": 22,
   "target": 26,
   "score": "25-23",
   "week": 8
 },
 {
   "source": 18,
   "target": 30,
   "score": "34-17",
   "week": 9
 },
 {
   "source": 15,
   "target": 21,
   "score": "27-34",
   "week": 9
 },
 {
   "source": 31,
   "target": 10,
   "score": "34-44",
   "week": 9
 },
 {
   "source": 1,
   "target": 5,
   "score": "24-10",
   "week": 9
 },
 {
   "source": 7,
   "target": 6,
   "score": "27-25",
   "week": 9
 },
 {
   "source": 23,
   "target": 13,
   "score": "31-33",
   "week": 9
 },
 {
   "source": 19,
   "target": 20,
   "score": "20-34",
   "week": 9
 },
 {
   "source": 17,
   "target": 8,
   "score": "17-24",
   "week": 9
 },
 {
   "source": 26,
   "target": 28,
   "score": "23-20",
   "week": 9
 },
 {
   "source": 14,
   "target": 16,
   "score": "31-26",
   "week": 9
 },
 {
   "source": 9,
   "target": 32,
   "score": "34-31",
   "week": 9
 },
 {
   "source": 3,
   "target": 25,
   "score": "24-19",
   "week": 9
 },
 {
   "source": 24,
   "target": 22,
   "score": "38-3",
   "week": 9
 },
 {
   "source": 11,
   "target": 12,
   "score": "30-27",
   "week": 9
 },
 {
   "source": 5,
   "target": 8,
   "score": "34-17",
   "week": 10
 },
 {
   "source": 22,
   "target": 23,
   "score": "46-23",
   "week": 10
 },
 {
   "source": 7,
   "target": 2,
   "score": "7-10.",
   "week": 10
 },
 {
   "source": 28,
   "target": 19,
   "score": "27-30",
   "week": 10
 },
 {
   "source": 6,
   "target": 18,
   "score": "20-24",
   "week": 10
 },
 {
   "source": 27,
   "target": 26,
   "score": "17-27",
   "week": 10
 },
 {
   "source": 10,
   "target": 32,
   "score": "30-32",
   "week": 10
 },
 {
   "source": 15,
   "target": 14,
   "score": "12-37.",
   "week": 10
 },
 {
   "source": 16,
   "target": 9,
   "score": "21-29",
   "week": 10
 },
 {
   "source": 4,
   "target": 3,
   "score": "10-36.",
   "week": 10
 },
 {
   "source": 31,
   "target": 29,
   "score": "16-23",
   "week": 10
 },
 {
   "source": 30,
   "target": 24,
   "score": "13-27",
   "week": 10
 },
 {
   "source": 1,
   "target": 11,
   "score": "17-23",
   "week": 10
 },
 {
   "source": 20,
   "target": 17,
   "score": "19-13",
   "week": 10
 },
 {
   "source": 32,
   "target": 31,
   "score": "21-28",
   "week": 11
 },
 {
   "source": 8,
   "target": 1,
   "score": "30-24",
   "week": 11
 },
 {
   "source": 19,
   "target": 23,
   "score": "0-20",
   "week": 11
 },
 {
   "source": 27,
   "target": 2,
   "score": "17-22",
   "week": 11
 },
 {
   "source": 11,
   "target": 7,
   "score": "20-27",
   "week": 11
 },
 {
   "source": 3,
   "target": 6,
   "score": "27-3",
   "week": 11
 },
 {
   "source": 21,
   "target": 24,
   "score": "9-24.",
   "week": 11
 },
 {
   "source": 4,
   "target": 28,
   "score": "9-20.",
   "week": 11
 },
 {
   "source": 9,
   "target": 15,
   "score": "13-20",
   "week": 11
 },
 {
   "source": 12,
   "target": 16,
   "score": "28-34",
   "week": 11
 },
 {
   "source": 25,
   "target": 20,
   "score": "31-28",
   "week": 11
 },
 {
   "source": 13,
   "target": 14,
   "score": "35-31",
   "week": 11
 },
 {
   "source": 29,
   "target": 22,
   "score": "27-24",
   "week": 11
 },
 {
   "source": 7,
   "target": 19,
   "score": "41-25",
   "week": 12
 },
 {
   "source": 28,
   "target": 25,
   "score": "41-16",
   "week": 12
 },
 {
   "source": 14,
   "target": 21,
   "score": "6-43.",
   "week": 12
 },
 {
   "source": 16,
   "target": 10,
   "score": "17-27",
   "week": 12
 },
 {
   "source": 26,
   "target": 4,
   "score": "19-17",
   "week": 12
 },
 {
   "source": 8,
   "target": 5,
   "score": "45-26",
   "week": 12
 },
 {
   "source": 2,
   "target": 6,
   "score": "27-25",
   "week": 12
 },
 {
   "source": 23,
   "target": 20,
   "score": "27-28",
   "week": 12
 },
 {
   "source": 32,
   "target": 11,
   "score": "17-20",
   "week": 12
 },
 {
   "source": 9,
   "target": 12,
   "score": "20-3",
   "week": 12
 },
 {
   "source": 24,
   "target": 15,
   "score": "31-3",
   "week": 12
 },
 {
   "source": 30,
   "target": 29,
   "score": "23-20",
   "week": 12
 },
 {
   "source": 13,
   "target": 22,
   "score": "27-24",
   "week": 12
 },
 {
   "source": 17,
   "target": 18,
   "score": "25-41",
   "week": 12
 },
 {
   "source": 31,
   "target": 27,
   "score": "23-17",
   "week": 12
 },
 {
   "source": 1,
   "target": 3,
   "score": "14-19",
   "week": 12
 },
 {
   "source": 24,
   "target": 21,
   "score": "21-16",
   "week": 13
 },
 {
   "source": 19,
   "target": 17,
   "score": "34-30",
   "week": 13
 },
 {
   "source": 5,
   "target": 7,
   "score": "26-20",
   "week": 13
 },
 {
   "source": 4,
   "target": 9,
   "score": "7-19.",
   "week": 13
 },
 {
   "source": 6,
   "target": 20,
   "score": "24-27",
   "week": 13
 },
 {
   "source": 14,
   "target": 12,
   "score": "31-28",
   "week": 13
 },
 {
   "source": 2,
   "target": 8,
   "score": "41-35",
   "week": 13
 },
 {
   "source": 29,
   "target": 32,
   "score": "38-28",
   "week": 13
 },
 {
   "source": 26,
   "target": 31,
   "score": "17-12",
   "week": 13
 },
 {
   "source": 27,
   "target": 18,
   "score": "16-30",
   "week": 13
 },
 {
   "source": 11,
   "target": 16,
   "score": "45-0",
   "week": 13
 },
 {
   "source": 15,
   "target": 13,
   "score": "16-22",
   "week": 13
 },
 {
   "source": 28,
   "target": 3,
   "score": "23-17",
   "week": 13
 },
 {
   "source": 10,
   "target": 30,
   "score": "34-24",
   "week": 13
 },
 {
   "source": 25,
   "target": 1,
   "score": "17-34",
   "week": 13
 },
 {
   "source": 11,
   "target": 29,
   "score": "3-24.",
   "week": 14
 },
 {
   "source": 15,
   "target": 23,
   "score": "32-27",
   "week": 14
 },
 {
   "source": 7,
   "target": 17,
   "score": "7-36.",
   "week": 14
 },
 {
   "source": 25,
   "target": 4,
   "score": "30-7",
   "week": 14
 },
 {
   "source": 8,
   "target": 6,
   "score": "31-10",
   "week": 14
 },
 {
   "source": 13,
   "target": 9,
   "score": "33-27",
   "week": 14
 },
 {
   "source": 32,
   "target": 26,
   "score": "26-7",
   "week": 14
 },
 {
   "source": 20,
   "target": 22,
   "score": "14-26",
   "week": 14
 },
 {
   "source": 5,
   "target": 14,
   "score": "44-27",
   "week": 14
 },
 {
   "source": 12,
   "target": 31,
   "score": "3-40.",
   "week": 14
 },
 {
   "source": 18,
   "target": 19,
   "score": "31-24",
   "week": 14
 },
 {
   "source": 21,
   "target": 16,
   "score": "17-20",
   "week": 14
 },
 {
   "source": 24,
   "target": 27,
   "score": "21-24",
   "week": 14
 },
 {
   "source": 28,
   "target": 30,
   "score": "23-15",
   "week": 14
 },
 {
   "source": 3,
   "target": 10,
   "score": "15-26",
   "week": 14
 },
 {
   "source": 1,
   "target": 2,
   "score": "47-42",
   "week": 14
 },
 {
   "source": 16,
   "target": 14,
   "score": "30-27",
   "week": 15
 },
 {
   "source": 10,
   "target": 15,
   "score": "48-19",
   "week": 15
 },
 {
   "source": 23,
   "target": 18,
   "score": "16-24",
   "week": 15
 },
 {
   "source": 7,
   "target": 5,
   "score": "20-27",
   "week": 15
 },
 {
   "source": 19,
   "target": 8,
   "score": "25-46",
   "week": 15
 },
 {
   "source": 22,
   "target": 21,
   "score": "31-27",
   "week": 15
 },
 {
   "source": 6,
   "target": 1,
   "score": "14-40",
   "week": 15
 },
 {
   "source": 11,
   "target": 9,
   "score": "12-22.",
   "week": 15
 },
 {
   "source": 17,
   "target": 20,
   "score": "33-27",
   "week": 15
 },
 {
   "source": 31,
   "target": 28,
   "score": "20-15",
   "week": 15
 },
 {
   "source": 30,
   "target": 25,
   "score": "33-41",
   "week": 15
 },
 {
   "source": 12,
   "target": 29,
   "score": "23-20",
   "week": 15
 },
 {
   "source": 27,
   "target": 32,
   "score": "26-33",
   "week": 15
 },
 {
   "source": 13,
   "target": 29,
   "score": "32-29",
   "week": 15
 },
 {
   "source": 2,
   "target": 26,
   "score": "20-6",
   "week": 15
 },
 {
   "source": 3,
   "target": 4,
   "score": "17-27",
   "week": 15
 },
 {
   "source": 20,
   "target": 24,
   "score": "33-52",
   "week": 16
 },
 {
   "source": 22,
   "target": 19,
   "score": "47-7",
   "week": 16
 },
 {
   "source": 30,
   "target": 32,
   "score": "20-12",
   "week": 16
 },
 {
   "source": 9,
   "target": 14,
   "score": "26-25",
   "week": 16
 },
 {
   "source": 2,
   "target": 12,
   "score": "16-23",
   "week": 16
 },
 {
   "source": 26,
   "target": 1,
   "score": "13-27",
   "week": 16
 },
 {
   "source": 4,
   "target": 10,
   "score": "37-31",
   "week": 16
 },
 {
   "source": 17,
   "target": 6,
   "score": "41-17",
   "week": 16
 },
 {
   "source": 21,
   "target": 13,
   "score": "14-17",
   "week": 16
 },
 {
   "source": 5,
   "target": 3,
   "score": "24-28",
   "week": 16
 },
 {
   "source": 15,
   "target": 16,
   "score": "16-19",
   "week": 16
 },
 {
   "source": 23,
   "target": 28,
   "score": "20-13",
   "week": 16
 },
 {
   "source": 29,
   "target": 31,
   "score": "9-20.",
   "week": 16
 },
 {
   "source": 27,
   "target": 25,
   "score": "17-37",
   "week": 16
 },
 {
   "source": 8,
   "target": 18,
   "score": "14-40",
   "week": 16
 },
 {
   "source": 10,
   "target": 11,
   "score": "38-9",
   "week": 16
 },
 {
   "source": 9,
   "target": 10,
   "score": "26-56",
   "week": 17
 },
 {
   "source": 1,
   "target": 4,
   "score": "38-3",
   "week": 17
 },
 {
   "source": 3,
   "target": 2,
   "score": "22-24",
   "week": 17
 },
 {
   "source": 20,
   "target": 19,
   "score": "37-35",
   "week": 17
 },
 {
   "source": 12,
   "target": 11,
   "score": "14-28",
   "week": 17
 },
 {
   "source": 25,
   "target": 26,
   "score": "19-23",
   "week": 17
 },
 {
   "source": 21,
   "target": 22,
   "score": "27-44",
   "week": 17
 },
 {
   "source": 24,
   "target": 23,
   "score": "33-7",
   "week": 17
 },
 {
   "source": 26,
   "target": 17,
   "score": "35-16",
   "week": 17
 },
 {
   "source": 16,
   "target": 13,
   "score": "38-21",
   "week": 17
 },
 {
   "source": 14,
   "target": 15,
   "score": "32-31",
   "week": 17
 },
 {
   "source": 8,
   "target": 7,
   "score": "41-38",
   "week": 17
 },
 {
   "source": 6,
   "target": 5,
   "score": "14-28",
   "week": 17
 },
 {
   "source": 32,
   "target": 29,
   "score": "7-18.",
   "week": 17
 },
 {
   "source": 31,
   "target": 30,
   "score": "26-23",
   "week": 17
 },
 {
   "source": 28,
   "target": 27,
   "score": "20-14",
   "week": 17
 }
]